{"type":"FeatureCollection","features":[{"type":"Feature","id":1822,"geometry":{"type":"Point","coordinates":[-96.1266412,41.2660556]},"properties":{"name":"Chase C. Woodward, MD, MPH","specialties":[],"state":"Nebraska"}},{"type":"Feature","id":1821,"geometry":{"type":"Point","coordinates":[-96.1266412,41.2660556]},"properties":{"name":"Eric D. Phillips, MD","specialties":[],"state":"Nebraska"}},{"type":"Feature","id":1820,"geometry":{"type":"Point","coordinates":[-96.1266412,41.2660556]},"properties":{"name":"John D. Hain, MD","specialties":[],"state":"Nebraska"}},{"type":"Feature","id":1819,"geometry":{"type":"Point","coordinates":[-96.1266412,41.2660556]},"properties":{"name":"Michael C. Longley, MD","specialties":[],"state":"Nebraska"}},{"type":"Feature","id":1818,"geometry":{"type":"Point","coordinates":[-118.87778120000002,34.1857062]},"properties":{"name":"Erik C. Spayde, MD","specialties":[],"state":"California"}},{"type":"Feature","id":1817,"geometry":{"type":"Point","coordinates":[-91.44773559999999,39.7056538]},"properties":{"name":"Rahul Basho, MD","specialties":[],"state":"Missouri"}},{"type":"Feature","id":1816,"geometry":{"type":"Point","coordinates":[-83.21818359999997,42.5522123]},"properties":{"name":"Michael Kapsokavathis, DO","specialties":[],"state":"Michigan"}},{"type":"Feature","id":1815,"geometry":{"type":"Point","coordinates":[-74.60548890000001,39.43517190000001]},"properties":{"name":"Kris E. Radcliff, MD","specialties":[],"state":"New Jersey"}},{"type":"Feature","id":1814,"geometry":{"type":"Point","coordinates":[-93.16586559999996,45.0245598]},"properties":{"name":"Daniel W. Hanson, MD, FAAOS","specialties":[],"state":"Minnesota"}},{"type":"Feature","id":1813,"geometry":{"type":"Point","coordinates":[-94.64821740000002,38.9331076]},"properties":{"name":"Alexander Bailey, MD","specialties":[],"state":"Kansas"}},{"type":"Feature","id":1812,"geometry":{"type":"Point","coordinates":[-99.11285959999998,40.683387]},"properties":{"name":"David A. Benavides, MD","specialties":[],"state":"Nebraska"}},{"type":"Feature","id":1811,"geometry":{"type":"Point","coordinates":[-73.95386009999999,40.7890717]},"properties":{"name":"Saad B. Chaudhary, MD","specialties":[],"state":"New York"}},{"type":"Feature","id":1810,"geometry":{"type":"Point","coordinates":[-74.9626599,39.9259086]},"properties":{"name":"Kam Momi, MD","specialties":[],"state":"New Jersey"}},{"type":"Feature","id":1809,"geometry":{"type":"Point","coordinates":[-74.9626599,39.9259086]},"properties":{"name":"Mark A. Testaiuti, MD, FAANS","specialties":[],"state":"New Jersey"}},{"type":"Feature","id":1808,"geometry":{"type":"Point","coordinates":[-87.84819679999998,42.038703]},"properties":{"name":"Avi J. Bernstein, MD","specialties":[],"state":"Illinois"}},{"type":"Feature","id":1807,"geometry":{"type":"Point","coordinates":[-82.3515466,28.1964489]},"properties":{"name":"Amir Ahmadian, MD","specialties":[],"state":"Florida"}},{"type":"Feature","id":1806,"geometry":{"type":"Point","coordinates":[-151.0786253,60.4937788]},"properties":{"name":"John L. Andreshak, MD","specialties":[],"state":"Alaska"}},{"type":"Feature","id":1805,"geometry":{"type":"Point","coordinates":[-120.5295458,46.619399]},"properties":{"name":"Michael A. Chang, MD, PhD","specialties":[],"state":"Washington"}},{"type":"Feature","id":1804,"geometry":{"type":"Point","coordinates":[-77.51414499999998,37.5847479]},"properties":{"name":"Jed S. Vanichkachorn, MD","specialties":[],"state":"Virginia"}},{"type":"Feature","id":1803,"geometry":{"type":"Point","coordinates":[-78.5895491,35.7868036]},"properties":{"name":"Gurvinder S. Deol, MD","specialties":[],"state":"North Carolina"}},{"type":"Feature","id":1802,"geometry":{"type":"Point","coordinates":[-77.95268709999999,35.72252289999999]},"properties":{"name":"William A. Kunkle, DO","specialties":[],"state":"North Carolina"}},{"type":"Feature","id":1801,"geometry":{"type":"Point","coordinates":[-78.70572670000001,35.8236602]},"properties":{"name":"Ronak Desai, MD","specialties":[],"state":"North Carolina"}},{"type":"Feature","id":1800,"geometry":{"type":"Point","coordinates":[-78.78115989999998,35.9162283]},"properties":{"name":"Matthew D. Hannibal, MD","specialties":[],"state":"North Carolina"}},{"type":"Feature","id":1799,"geometry":{"type":"Point","coordinates":[-78.76278489999999,35.7420131]},"properties":{"name":"Sameer Mathur, MD","specialties":[],"state":"North Carolina"}},{"type":"Feature","id":1798,"geometry":{"type":"Point","coordinates":[-78.71050730000002,35.8219249]},"properties":{"name":"Daniel J. Thibaudeau, MD","specialties":[],"state":"North Carolina"}},{"type":"Feature","id":1797,"geometry":{"type":"Point","coordinates":[-82.3515466,28.1964489]},"properties":{"name":"Armen Deukmedjian, MD","specialties":[],"state":"Florida"}},{"type":"Feature","id":1796,"geometry":{"type":"Point","coordinates":[-81.37053400000002,28.5939574]},"properties":{"name":"Henry Ruiz, MD","specialties":[],"state":"Florida"}},{"type":"Feature","id":1795,"geometry":{"type":"Point","coordinates":[-117.86639909999997,33.6548258]},"properties":{"name":"Grant Shifflett, MD","specialties":[],"state":"California"}},{"type":"Feature","id":1793,"geometry":{"type":"Point","coordinates":[-90.5888266,38.7936458]},"properties":{"name":"Terrence Piper, MD","specialties":[],"state":"Missouri"}},{"type":"Feature","id":1792,"geometry":{"type":"Point","coordinates":[-95.51347859999998,29.7823431]},"properties":{"name":"Neil Badlani, MD, MBA","specialties":[],"state":"Texas"}},{"type":"Feature","id":1791,"geometry":{"type":"Point","coordinates":[-95.5509409,29.9693842]},"properties":{"name":"Hosun Hwang, MD","specialties":[],"state":"Texas"}},{"type":"Feature","id":1790,"geometry":{"type":"Point","coordinates":[-76.487683,37.08604329999999]},"properties":{"name":"Jeffrey R. Carlson, MD","specialties":[],"state":"Virginia"}},{"type":"Feature","id":1789,"geometry":{"type":"Point","coordinates":[-77.35518079999997,38.9496694]},"properties":{"name":"Colin M. Haines, MD","specialties":[],"state":"Virginia"}},{"type":"Feature","id":1788,"geometry":{"type":"Point","coordinates":[-77.35518079999997,38.9496694]},"properties":{"name":"Ehsan Jazini, MD","specialties":[],"state":"Virginia"}},{"type":"Feature","id":1787,"geometry":{"type":"Point","coordinates":[-77.35518079999997,38.9496694]},"properties":{"name":"Thomas C. Schuler, MD, FACS","specialties":[],"state":"Virginia"}},{"type":"Feature","id":1786,"geometry":{"type":"Point","coordinates":[-81.37959469999998,28.5307379]},"properties":{"name":"Joseph Christopher Wehman, MD","specialties":[],"state":"Florida"}},{"type":"Feature","id":1785,"geometry":{"type":"Point","coordinates":[-81.30566579999999,28.6034249]},"properties":{"name":"Keyne K. Johnson, MD","specialties":[],"state":"Florida"}},{"type":"Feature","id":1776,"geometry":{"type":"Point","coordinates":[-82.74064950000002,28.1088076]},"properties":{"name":"Andrew Maser, DO","specialties":[],"state":"Florida"}},{"type":"Feature","id":1775,"geometry":{"type":"Point","coordinates":[-85.36699060000001,31.2169171]},"properties":{"name":"Joshua Sterling Bentley, DO","specialties":[],"state":"Alabama"}},{"type":"Feature","id":1774,"geometry":{"type":"Point","coordinates":[-74.3760666,40.7962077]},"properties":{"name":"Anil Nair, MD, FAANS","specialties":[],"state":"New Jersey"}},{"type":"Feature","id":1773,"geometry":{"type":"Point","coordinates":[-73.97083559999999,40.8993376]},"properties":{"name":"Jonathan D. Lewin, MD","specialties":[],"state":"New Jersey"}},{"type":"Feature","id":1772,"geometry":{"type":"Point","coordinates":[-96.8319176,33.0439926]},"properties":{"name":"Renato V. Bosita Jr, MD, MBA","specialties":[],"state":"Texas"}},{"type":"Feature","id":1771,"geometry":{"type":"Point","coordinates":[-96.8319176,33.0439926]},"properties":{"name":"Peter Derman, MD, MBA","specialties":[],"state":"Texas"}},{"type":"Feature","id":1770,"geometry":{"type":"Point","coordinates":[-82.54187919999998,28.1890822]},"properties":{"name":"Eric Sincoff, MD","specialties":[],"state":"Florida"}},{"type":"Feature","id":1769,"geometry":{"type":"Point","coordinates":[-90.50287129999998,38.6522289]},"properties":{"name":"Stephen J. Johans, MD","specialties":[],"state":"Missouri"}},{"type":"Feature","id":1768,"geometry":{"type":"Point","coordinates":[-90.50287129999998,38.6522289]},"properties":{"name":"Scott H. Purvines, MD","specialties":[],"state":"Missouri"}},{"type":"Feature","id":1767,"geometry":{"type":"Point","coordinates":[-90.50287129999998,38.6522289]},"properties":{"name":"Michael N. Polinsky, MD","specialties":[],"state":"Missouri"}},{"type":"Feature","id":1766,"geometry":{"type":"Point","coordinates":[-90.50287129999998,38.6522289]},"properties":{"name":"Michael F. Boland, MD","specialties":[],"state":"Missouri"}},{"type":"Feature","id":1765,"geometry":{"type":"Point","coordinates":[-90.50287129999998,38.6522289]},"properties":{"name":"Andrew S. Youkilis, MD","specialties":[],"state":"Missouri"}},{"type":"Feature","id":1764,"geometry":{"type":"Point","coordinates":[-117.2759345,34.1352316]},"properties":{"name":"Ali H. Mesiwala, MD","specialties":[],"state":"California"}},{"type":"Feature","id":1763,"geometry":{"type":"Point","coordinates":[-118.47996390000003,34.0290544]},"properties":{"name":"Amir Vokshoor, MD","specialties":[],"state":"California"}},{"type":"Feature","id":1762,"geometry":{"type":"Point","coordinates":[-118.18462,33.8073288]},"properties":{"name":"Philip S. Yuan, MD","specialties":[],"state":"California"}},{"type":"Feature","id":1761,"geometry":{"type":"Point","coordinates":[-86.78522299999997,36.174042]},"properties":{"name":"Joseph Blythe, DO","specialties":[],"state":"Tennessee"}},{"type":"Feature","id":1760,"geometry":{"type":"Point","coordinates":[-73.29202199999997,40.696533]},"properties":{"name":"Salvatore Insinga, DO","specialties":[],"state":"New York"}},{"type":"Feature","id":1759,"geometry":{"type":"Point","coordinates":[-90.47716430000003,38.5680758]},"properties":{"name":"Armond Levy, MD","specialties":[],"state":"Missouri"}},{"type":"Feature","id":1758,"geometry":{"type":"Point","coordinates":[-88.99534449999999,37.7448909]},"properties":{"name":"Amit Bhandarkar, MD","specialties":[],"state":"Illinois"}},{"type":"Feature","id":1757,"geometry":{"type":"Point","coordinates":[-122.1835633,47.6219249]},"properties":{"name":"David W. Newell, MD","specialties":[],"state":"Washington"}},{"type":"Feature","id":1756,"geometry":{"type":"Point","coordinates":[-85.45675169999998,31.2377629]},"properties":{"name":"Nicholas Voss, MD","specialties":[],"state":"Alabama"}},{"type":"Feature","id":1755,"geometry":{"type":"Point","coordinates":[-85.45675169999998,31.2377629]},"properties":{"name":"Bruce Woodham, MD","specialties":[],"state":"Alabama"}},{"type":"Feature","id":1754,"geometry":{"type":"Point","coordinates":[-85.372478,31.1978338]},"properties":{"name":"Timothy M. Haley, MD","specialties":[],"state":"Alabama"}},{"type":"Feature","id":1753,"geometry":{"type":"Point","coordinates":[-85.372478,31.1978338]},"properties":{"name":"Jeremiah Maddox, MD","specialties":[],"state":"Alabama"}},{"type":"Feature","id":1752,"geometry":{"type":"Point","coordinates":[-122.1816265,47.7162786]},"properties":{"name":"J. Scott Price, MD","specialties":[],"state":"Washington"}},{"type":"Feature","id":1751,"geometry":{"type":"Point","coordinates":[-122.31213209999999,47.6196882]},"properties":{"name":"Chong C. Lee, MD","specialties":[],"state":"Washington"}},{"type":"Feature","id":1750,"geometry":{"type":"Point","coordinates":[-122.17948180000002,47.7144649]},"properties":{"name":"Mark A. Freeborn, MD","specialties":[],"state":"Washington"}},{"type":"Feature","id":1749,"geometry":{"type":"Point","coordinates":[-82.3143283,34.8480772]},"properties":{"name":"Christie B. Mina, MD","specialties":[],"state":"South Carolina"}},{"type":"Feature","id":1748,"geometry":{"type":"Point","coordinates":[-81.9419734,34.9776612]},"properties":{"name":"Phillip Esce, MD","specialties":[],"state":"South Carolina"}},{"type":"Feature","id":1747,"geometry":{"type":"Point","coordinates":[-93.33117909999999,44.8863753]},"properties":{"name":"Rick Davis, MD","specialties":[],"state":"Minnesota"}},{"type":"Feature","id":1746,"geometry":{"type":"Point","coordinates":[-84.51377100000002,33.447801]},"properties":{"name":"Maurice L. Goins, MD","specialties":[],"state":"Georgia"}},{"type":"Feature","id":1745,"geometry":{"type":"Point","coordinates":[-82.54187919999998,28.1890822]},"properties":{"name":"John Soliman, DO, FACOS","specialties":[],"state":"Florida"}},{"type":"Feature","id":1744,"geometry":{"type":"Point","coordinates":[-82.79205050000002,27.952745]},"properties":{"name":"J. Byron Davidson, DO","specialties":[],"state":"Florida"}},{"type":"Feature","id":1743,"geometry":{"type":"Point","coordinates":[-121.9589092,37.293384]},"properties":{"name":"Sherwin Hua, MD, PhD","specialties":[],"state":"California"}},{"type":"Feature","id":1742,"geometry":{"type":"Point","coordinates":[-86.005739,34.0060795]},"properties":{"name":"Daniel O. Ryan, MD","specialties":[],"state":"Alabama"}},{"type":"Feature","id":1741,"geometry":{"type":"Point","coordinates":[-86.72250009999999,33.4391281]},"properties":{"name":"Robert Robinson, MD","specialties":[],"state":"Alabama"}},{"type":"Feature","id":1738,"geometry":{"type":"Point","coordinates":[-96.58505530000002,33.7106338]},"properties":{"name":"Brian T. Rose, MD, FAAOS","specialties":[],"state":"Texas"}},{"type":"Feature","id":1737,"geometry":{"type":"Point","coordinates":[-106.46248930000002,31.8216133]},"properties":{"name":"Rory J. Petteys, MD","specialties":[],"state":"Texas"}},{"type":"Feature","id":1736,"geometry":{"type":"Point","coordinates":[-96.811241,33.0630758]},"properties":{"name":"Scott Kutz, MD","specialties":[],"state":"Texas"}},{"type":"Feature","id":1735,"geometry":{"type":"Point","coordinates":[-96.77114849999998,32.8750626]},"properties":{"name":"William R. Hotchkiss, MD","specialties":[],"state":"Texas"}},{"type":"Feature","id":1734,"geometry":{"type":"Point","coordinates":[-106.46248930000002,31.8216133]},"properties":{"name":"Shane A. Hawksworth, MD","specialties":[],"state":"Texas"}},{"type":"Feature","id":1733,"geometry":{"type":"Point","coordinates":[-96.87992009999999,33.0431927]},"properties":{"name":"James A. Guess, MD","specialties":[],"state":"Texas"}},{"type":"Feature","id":1732,"geometry":{"type":"Point","coordinates":[-96.82933070000001,32.983981]},"properties":{"name":"Cameron N. Carmody, MD","specialties":[],"state":"Texas"}},{"type":"Feature","id":1731,"geometry":{"type":"Point","coordinates":[-74.63720690000002,40.322318]},"properties":{"name":"Nazer Qureshi, MD","specialties":[],"state":"New Jersey"}},{"type":"Feature","id":1730,"geometry":{"type":"Point","coordinates":[-74.63720690000002,40.322318]},"properties":{"name":"Matthew J. Tormenti, MD","specialties":[],"state":"New Jersey"}},{"type":"Feature","id":1729,"geometry":{"type":"Point","coordinates":[-74.63720690000002,40.322318]},"properties":{"name":"Nirav K. Shah, MD","specialties":[],"state":"New Jersey"}},{"type":"Feature","id":1727,"geometry":{"type":"Point","coordinates":[-95.70398979999999,29.7938031]},"properties":{"name":"Dani S. Bidros, MD, FACS","specialties":[],"state":"Texas"}},{"type":"Feature","id":1725,"geometry":{"type":"Point","coordinates":[-82.96309380000002,39.9786991]},"properties":{"name":"Safdar Khan, MD","specialties":[],"state":"Ohio"}},{"type":"Feature","id":1724,"geometry":{"type":"Point","coordinates":[-84.12431300000003,39.69867]},"properties":{"name":"Nicolas E. Grisoni, MD","specialties":[],"state":"Ohio"}},{"type":"Feature","id":1723,"geometry":{"type":"Point","coordinates":[-74.63720690000002,40.322318]},"properties":{"name":"Richard J. Meagher, MD","specialties":[],"state":"New Jersey"}},{"type":"Feature","id":1722,"geometry":{"type":"Point","coordinates":[-74.63720690000002,40.322318]},"properties":{"name":"Mark R. McLaughlin, MD","specialties":[],"state":"New Jersey"}},{"type":"Feature","id":1721,"geometry":{"type":"Point","coordinates":[-74.63720690000002,40.322318]},"properties":{"name":"Seth Joseffer, MD","specialties":[],"state":"New Jersey"}},{"type":"Feature","id":1720,"geometry":{"type":"Point","coordinates":[-87.81052569999997,42.0983915]},"properties":{"name":"Gary Shapiro, MD","specialties":[],"state":"Illinois"}},{"type":"Feature","id":1719,"geometry":{"type":"Point","coordinates":[-84.55920349999997,34.0372373]},"properties":{"name":"Tapan Daftari, MD","specialties":[],"state":"Georgia"}},{"type":"Feature","id":1718,"geometry":{"type":"Point","coordinates":[-121.96690719999998,37.2623306]},"properties":{"name":"Kornelis Poelstra, MD, PhD","specialties":[],"state":"California"}},{"type":"Feature","id":1717,"geometry":{"type":"Point","coordinates":[-118.43684630000001,33.9843394]},"properties":{"name":"Sanjay Khurana, MD","specialties":[],"state":"California"}},{"type":"Feature","id":1716,"geometry":{"type":"Point","coordinates":[-118.47539979999999,34.0379064]},"properties":{"name":"Hyun W. Bae, MD","specialties":[],"state":"California"}},{"type":"Feature","id":1711,"geometry":{"type":"Point","coordinates":[-86.56754109999997,34.6964881]},"properties":{"name":"Javier A. Reto, MD","specialties":[],"state":"Alabama"}},{"type":"Feature","id":1702,"geometry":{"type":"Point","coordinates":[-82.41136749999998,34.8137271]},"properties":{"name":"Michael Lynn, MD","specialties":[],"state":"South Carolina"}},{"type":"Feature","id":1701,"geometry":{"type":"Point","coordinates":[-81.9419734,34.9776612]},"properties":{"name":"Christopher Chittum, MD","specialties":[],"state":"South Carolina"}},{"type":"Feature","id":1700,"geometry":{"type":"Point","coordinates":[-76.30176110000002,40.0726264]},"properties":{"name":"Perry J. Argires, MD, FACs","specialties":[],"state":"Pennsylvania"}},{"type":"Feature","id":1699,"geometry":{"type":"Point","coordinates":[-90.33709169999997,38.6379164]},"properties":{"name":"Joseph Yazdi, MD, FAANS","specialties":[],"state":"Missouri"}},{"type":"Feature","id":1698,"geometry":{"type":"Point","coordinates":[-90.26268160000001,38.6347453]},"properties":{"name":"Neill M. Wright, MD","specialties":[],"state":"Missouri"}},{"type":"Feature","id":1697,"geometry":{"type":"Point","coordinates":[-90.47641329999999,38.5279937]},"properties":{"name":"Charles Wetherington, MD","specialties":[],"state":"Missouri"}},{"type":"Feature","id":1696,"geometry":{"type":"Point","coordinates":[-90.45034600000002,38.5840587]},"properties":{"name":"Kevin D. Rutz, MD","specialties":[],"state":"Missouri"}},{"type":"Feature","id":1695,"geometry":{"type":"Point","coordinates":[-90.54492599999998,38.6506348]},"properties":{"name":"Chris Reeves, DO","specialties":[],"state":"Missouri"}},{"type":"Feature","id":1694,"geometry":{"type":"Point","coordinates":[-90.4103824,38.6344879]},"properties":{"name":"David S. Raskas, MD","specialties":[],"state":"Missouri"}},{"type":"Feature","id":1692,"geometry":{"type":"Point","coordinates":[-90.3763803,38.5059872]},"properties":{"name":"Christopher P. O\u2019Boynick, MD","specialties":[],"state":"Missouri"}},{"type":"Feature","id":1691,"geometry":{"type":"Point","coordinates":[-90.23890519999998,38.6229966]},"properties":{"name":"Philippe Mercier, MD, PhD, FRCSC","specialties":[],"state":"Missouri"}},{"type":"Feature","id":1690,"geometry":{"type":"Point","coordinates":[-94.66836750000004,38.8959817]},"properties":{"name":"William O. Reed, Jr., MD","specialties":[],"state":"Kansas"}},{"type":"Feature","id":1689,"geometry":{"type":"Point","coordinates":[-94.66836750000004,38.8959817]},"properties":{"name":"Glenn Amundson, MD","specialties":[],"state":"Kansas"}},{"type":"Feature","id":1688,"geometry":{"type":"Point","coordinates":[-87.51086269999996,41.5393675]},"properties":{"name":"Nitin Khanna, MD, FAAOS","specialties":[],"state":"Indiana"}},{"type":"Feature","id":1685,"geometry":{"type":"Point","coordinates":[-82.47084039999999,27.981239]},"properties":{"name":"Gary Moskovitz, MD","specialties":[],"state":"Florida"}},{"type":"Feature","id":1684,"geometry":{"type":"Point","coordinates":[-117.15347129999998,32.8121481]},"properties":{"name":"Sohaib Kureshi, MD, FACS","specialties":[],"state":"California"}},{"type":"Feature","id":1674,"geometry":{"type":"Point","coordinates":[-122.29009780000001,47.1768909]},"properties":{"name":"Richard N.W. Wohns, MD, JD, MBA","specialties":[],"state":"Washington"}},{"type":"Feature","id":1673,"geometry":{"type":"Point","coordinates":[-122.29009780000001,47.1768909]},"properties":{"name":"Kenneth Nwosu, MD","specialties":[],"state":"Washington"}},{"type":"Feature","id":1672,"geometry":{"type":"Point","coordinates":[-122.29009780000001,47.1768909]},"properties":{"name":"Alex Mohit, MD","specialties":[],"state":"Washington"}},{"type":"Feature","id":1671,"geometry":{"type":"Point","coordinates":[-96.83919880000002,32.81198030000001]},"properties":{"name":"Bryan Wohlfeld, MD, FAANS","specialties":[],"state":"Texas"}},{"type":"Feature","id":1670,"geometry":{"type":"Point","coordinates":[-92.29205230000002,38.94789129999999]},"properties":{"name":"John D. Miles, MD","specialties":[],"state":"Missouri"}},{"type":"Feature","id":1669,"geometry":{"type":"Point","coordinates":[-92.29205230000002,38.94789129999999]},"properties":{"name":"S. Craig Meyer, MD","specialties":[],"state":"Missouri"}},{"type":"Feature","id":1668,"geometry":{"type":"Point","coordinates":[-88.66986980000001,37.0530484]},"properties":{"name":"K. Brandon Strenge, MD","specialties":[],"state":"Kentucky"}},{"type":"Feature","id":1667,"geometry":{"type":"Point","coordinates":[-88.66986980000001,37.0530484]},"properties":{"name":"Clint P. Hill, MD","specialties":[],"state":"Kentucky"}},{"type":"Feature","id":1666,"geometry":{"type":"Point","coordinates":[-87.51086269999996,41.5393675]},"properties":{"name":"Dwight Tyndall, MD, FAAOS","specialties":[],"state":"Indiana"}},{"type":"Feature","id":1665,"geometry":{"type":"Point","coordinates":[-86.15331630000003,39.9805281]},"properties":{"name":"Kenneth Renkens, MD*","specialties":[],"state":"Indiana"}},{"type":"Feature","id":1664,"geometry":{"type":"Point","coordinates":[-86.165996,40.4940846]},"properties":{"name":"Thomas M. Reilly, MD, FACS","specialties":[],"state":"Indiana"}},{"type":"Feature","id":1663,"geometry":{"type":"Point","coordinates":[-86.15331630000003,39.9805281]},"properties":{"name":"Justin W. Miller, MD","specialties":[],"state":"Indiana"}},{"type":"Feature","id":1661,"geometry":{"type":"Point","coordinates":[-86.15331630000003,39.9805281]},"properties":{"name":"Barrett Boody, MD","specialties":[],"state":"Indiana"}},{"type":"Feature","id":1659,"geometry":{"type":"Point","coordinates":[-87.92635610000002,43.0428795]},"properties":{"name":"Max C. Lee, MD","specialties":[],"state":"Wisconsin"}},{"type":"Feature","id":1658,"geometry":{"type":"Point","coordinates":[-81.11184420000001,34.0079783]},"properties":{"name":"Brett Gunter, MD, FAANS","specialties":[],"state":"South Carolina"}},{"type":"Feature","id":1657,"geometry":{"type":"Point","coordinates":[-78.8983227,36.0424492]},"properties":{"name":"David Musante, MD*","specialties":[],"state":"North Carolina"}},{"type":"Feature","id":1656,"geometry":{"type":"Point","coordinates":[-78.8983227,36.0424492]},"properties":{"name":"Thomas Dimmig, MD*","specialties":[],"state":"North Carolina"}},{"type":"Feature","id":1654,"geometry":{"type":"Point","coordinates":[-87.6700558,41.8729042]},"properties":{"name":"John E. O\u2019Toole, MD, MS","specialties":[],"state":"Illinois"}},{"type":"Feature","id":1653,"geometry":{"type":"Point","coordinates":[-88.15570780000002,41.8733023]},"properties":{"name":"Gregory Lopez, MD","specialties":[],"state":"Illinois"}},{"type":"Feature","id":1652,"geometry":{"type":"Point","coordinates":[-87.6700558,41.8729042]},"properties":{"name":"Harel Deutsch, MD","specialties":[],"state":"Illinois"}},{"type":"Feature","id":1651,"geometry":{"type":"Point","coordinates":[-87.66701390000003,41.8734283]},"properties":{"name":"Howard S. An, MD*","specialties":[],"state":"Illinois"}},{"type":"Feature","id":1650,"geometry":{"type":"Point","coordinates":[-72.93632530000002,41.3025011]},"properties":{"name":"Peter Whang, MD, FACS*","specialties":[],"state":"Connecticut"}},{"type":"Feature","id":1649,"geometry":{"type":"Point","coordinates":[-117.28566309999997,33.0388911]},"properties":{"name":"Jamieson Glenn, MD","specialties":[],"state":"California"}},{"type":"Feature","id":1648,"geometry":{"type":"Point","coordinates":[-112.04591370000003,33.5416512]},"properties":{"name":"Nima Salari, MD*","specialties":[],"state":"Arizona"}},{"type":"Feature","id":1647,"geometry":{"type":"Point","coordinates":[-112.04591370000003,33.5416512]},"properties":{"name":"Justin Field, MD*","specialties":[],"state":"Arizona"}},{"type":"Feature","id":1646,"geometry":{"type":"Point","coordinates":[-112.04591370000003,33.5416512]},"properties":{"name":"Josh Abrams, DO*","specialties":[],"state":"Arizona"}},{"type":"Feature","id":1645,"geometry":{"type":"Point","coordinates":[-73.95726960000002,40.7727913]},"properties":{"name":"Fabien Bitan, MD","specialties":[],"state":"New York"}},{"type":"Feature","id":1603,"geometry":{"type":"Point","coordinates":[-96.8319176,33.0439926]},"properties":{"name":"Scott Blumenthal, MD*","specialties":[],"state":"Texas"}},{"type":"Feature","id":1602,"geometry":{"type":"Point","coordinates":[-87.66701390000003,41.8734283]},"properties":{"name":"Frank Phillips, MD*","specialties":[],"state":"Illinois"}},{"type":"Feature","id":1600,"geometry":{"type":"Point","coordinates":[-112.04591370000003,33.5416512]},"properties":{"name":"Christopher Yeung, MD*","specialties":[],"state":"Arizona"}},{"type":"Feature","id":1599,"geometry":{"type":"Point","coordinates":[-112.26082259999998,33.47965]},"properties":{"name":"David Jackson, MD","specialties":[],"state":"Arizona"}},{"type":"Feature","id":1598,"geometry":{"type":"Point","coordinates":[-118.40704749999998,34.0684869]},"properties":{"name":"Jason Cuellar, MD, PHD","specialties":[],"state":"California"}},{"type":"Feature","id":1597,"geometry":{"type":"Point","coordinates":[-118.40704749999998,34.0684869]},"properties":{"name":"Todd Lanman, MD*","specialties":[],"state":"California"}},{"type":"Feature","id":1595,"geometry":{"type":"Point","coordinates":[-96.8319176,33.0439926]},"properties":{"name":"Jack Zigler, MD*","specialties":[],"state":"Texas"}},{"type":"Feature","id":1594,"geometry":{"type":"Point","coordinates":[-96.8319176,33.0439926]},"properties":{"name":"Jessica Shellock, MD*","specialties":[],"state":"Texas"}},{"type":"Feature","id":1592,"geometry":{"type":"Point","coordinates":[-96.8319176,33.0439926]},"properties":{"name":"Michael Hisey, MD","specialties":[],"state":"Texas"}},{"type":"Feature","id":388,"geometry":{"type":"Point","coordinates":[-96.8319176,33.0439926]},"properties":{"name":"Richard Guyer, MD*","specialties":[],"state":"Texas"}},{"type":"Feature","id":381,"geometry":{"type":"Point","coordinates":[-112.11296370000002,33.6537187]},"properties":{"name":"Ali Araghi, DO*","specialties":[],"state":"Arizona"}},{"type":"Feature","id":378,"geometry":{"type":"Point","coordinates":[-96.82764680000002,32.9949341]},"properties":{"name":"John Peloza, MD","specialties":[],"state":"Texas"}},{"type":"Feature","id":374,"geometry":{"type":"Point","coordinates":[-73.9523577,40.7664699]},"properties":{"name":"Andrew Sama, MD*","specialties":[],"state":"New York"}},{"type":"Feature","id":373,"geometry":{"type":"Point","coordinates":[-73.9523577,40.7664699]},"properties":{"name":"Frank Camissa Jr., MD*","specialties":[],"state":"New York"}},{"type":"Feature","id":372,"geometry":{"type":"Point","coordinates":[-80.822251,35.2091156]},"properties":{"name":"Alden Milam, MD*","specialties":[],"state":"North Carolina"}},{"type":"Feature","id":369,"geometry":{"type":"Point","coordinates":[-86.15331630000003,39.9805281]},"properties":{"name":"Rick Sasso, MD*","specialties":[],"state":"Indiana"}}]}
